{
   "stations": [
     {
       "name": "Emmerich (D)",
       "loc": {
         "nLat": 51.83435907,
         "nLong": 6.25603817
       }
     },
     {
       "name": "Gronau (D)",
       "loc": {
         "nLat": 52.20553791,
         "nLong": 7.01720137
       }
     },
     {
       "name": "Vise (B)",
       "loc": {
         "nLat": 50.7393837,
         "nLong": 5.69237596
       }
     },
     {
       "name": "Zelzate (B)",
       "loc": {
         "nLat": 51.19628808,
         "nLong": 3.79982743
       }
     },
     {
       "name": "Hemmen-Dodewaard",
       "loc": {
         "nLat": 51.92229195,
         "nLong": 5.67354892
       }
     },
     {
       "name": "Wijchen",
       "loc": {
         "nLat": 51.8114038,
         "nLong": 5.73004993
       }
     },
     {
       "name": "Doetinchem De Huet",
       "loc": {
         "nLat": 51.95916771,
         "nLong": 6.26089833
       }
     },
     {
       "name": "Zutphen",
       "loc": {
         "nLat": 52.1448165,
         "nLong": 6.19406627
       }
     },
     {
       "name": "Arnhem Presikhaaf",
       "loc": {
         "nLat": 51.98799833,
         "nLong": 5.94380567
       }
     },
     {
       "name": "Arnhem Velperpoort",
       "loc": {
         "nLat": 51.98518921,
         "nLong": 5.91959086
       }
     },
     {
       "name": "Apeldoorn De Maten",
       "loc": {
         "nLat": 52.20526919,
         "nLong": 6.00029614
       }
     },
     {
       "name": "Nijmegen",
       "loc": {
         "nLat": 51.84342939,
         "nLong": 5.85264014
       }
     },
     {
       "name": "Zevenaar",
       "loc": {
         "nLat": 51.92289531,
         "nLong": 6.07300662
       }
     },
     {
       "name": "Barneveld Zuid",
       "loc": {
         "nLat": 52.12788411,
         "nLong": 5.60357153
       }
     },
     {
       "name": "Soest Zuid",
       "loc": {
         "nLat": 52.16547026,
         "nLong": 5.30322026
       }
     },
     {
       "name": "Bussum Zuid",
       "loc": {
         "nLat": 52.26595984,
         "nLong": 5.16284002
       }
     },
     {
       "name": "Amsterdam Centraal",
       "loc": {
         "nLat": 52.37907414,
         "nLong": 4.90080474
       }
     },
     {
       "name": "Schiphol Airport",
       "loc": {
         "nLat": 52.30899813,
         "nLong": 4.76150704
       }
     },
     {
       "name": "Wormerveer",
       "loc": {
         "nLat": 52.48913155,
         "nLong": 4.79316062
       }
     },
     {
       "name": "Bovenkarspel-Grootebroek",
       "loc": {
         "nLat": 52.69509791,
         "nLong": 5.23742289
       }
     },
     {
       "name": "Eijsden",
       "loc": {
         "nLat": 50.77201918,
         "nLong": 5.71004053
       }
     },
     {
       "name": "Maastricht Randwijck",
       "loc": {
         "nLat": 50.83796791,
         "nLong": 5.71749839
       }
     },
     {
       "name": "Maastricht",
       "loc": {
         "nLat": 50.8482913,
         "nLong": 5.70644013
       }
     },
     {
       "name": "Meerssen",
       "loc": {
         "nLat": 50.88259724,
         "nLong": 5.75062627
       }
     },
     {
       "name": "Eygelshoven",
       "loc": {
         "nLat": 50.88992129,
         "nLong": 6.04591738
       }
     },
     {
       "name": "Echt",
       "loc": {
         "nLat": 51.10116337,
         "nLong": 5.87921505
       }
     },
     {
       "name": "Oosterbeek",
       "loc": {
         "nLat": 51.99453347,
         "nLong": 5.84110462
       }
     },
     {
       "name": "Herzogenrath (D)",
       "loc": {
         "nLat": 50.87062375,
         "nLong": 6.09429826
       }
     },
     {
       "name": "Emmerich-Elten (D)",
       "loc": {
         "nLat": 51.88086216,
         "nLong": 6.15066422
       }
     },
     {
       "name": "Vetschau (D)",
       "loc": {
         "nLat": 50.81252721,
         "nLong": 6.04244849
       }
     },
     {
       "name": "Noorderkempen (B)",
       "loc": {
         "nLat": 51.3574104,
         "nLong": 4.63406992
       }
     },
     {
       "name": "Zetten-Andelst",
       "loc": {
         "nLat": 51.91967153,
         "nLong": 5.72285281
       }
     },
     {
       "name": "Wehl",
       "loc": {
         "nLat": 51.95718924,
         "nLong": 6.21379459
       }
     },
     {
       "name": "Vorden",
       "loc": {
         "nLat": 52.10728718,
         "nLong": 6.31761452
       }
     },
     {
       "name": "Abcoude",
       "loc": {
         "nLat": 52.27826201,
         "nLong": 4.97764973
       }
     },
     {
       "name": "Diemen Zuid",
       "loc": {
         "nLat": 52.33070352,
         "nLong": 4.95683307
       }
     },
     {
       "name": "Maarssen",
       "loc": {
         "nLat": 52.13528457,
         "nLong": 5.03415917
       }
     },
     {
       "name": "Almere Muziekwijk",
       "loc": {
         "nLat": 52.36770473,
         "nLong": 5.19066257
       }
     },
     {
       "name": "Amsterdam Amstel",
       "loc": {
         "nLat": 52.34636379,
         "nLong": 4.91761471
       }
     },
     {
       "name": "Almere Oostvaarders",
       "loc": {
         "nLat": 52.4032652,
         "nLong": 5.30058017
       }
     },
     {
       "name": "Helmond",
       "loc": {
         "nLat": 51.47515294,
         "nLong": 5.6605384
       }
     },
     {
       "name": "Helmond 't Hout",
       "loc": {
         "nLat": 51.46810702,
         "nLong": 5.63164087
       }
     },
     {
       "name": "Gilze-Rijen",
       "loc": {
         "nLat": 51.58368783,
         "nLong": 4.92631926
       }
     },
     {
       "name": "Best",
       "loc": {
         "nLat": 51.50956739,
         "nLong": 5.38924519
       }
     },
     {
       "name": "Velp",
       "loc": {
         "nLat": 51.99498063,
         "nLong": 5.98090561
       }
     },
     {
       "name": "Lichtenvoorde-Groenlo",
       "loc": {
         "nLat": 52.01198285,
         "nLong": 6.59625284
       }
     },
     {
       "name": "Westervoort",
       "loc": {
         "nLat": 51.96298626,
         "nLong": 5.96924937
       }
     },
     {
       "name": "Didam",
       "loc": {
         "nLat": 51.93359238,
         "nLong": 6.1334134
       }
     },
     {
       "name": "Nijmegen Goffert",
       "loc": {
         "nLat": 51.82730284,
         "nLong": 5.8225469
       }
     },
     {
       "name": "Ruurlo",
       "loc": {
         "nLat": 52.08061906,
         "nLong": 6.45027344
       }
     },
     {
       "name": "Amersfoort Schothorst",
       "loc": {
         "nLat": 52.17444193,
         "nLong": 5.40334312
       }
     },
     {
       "name": "Soestdijk",
       "loc": {
         "nLat": 52.18325513,
         "nLong": 5.30008708
       }
     },
     {
       "name": "Barneveld Centrum",
       "loc": {
         "nLat": 52.13991568,
         "nLong": 5.59033697
       }
     },
     {
       "name": "Hollandsche Rading",
       "loc": {
         "nLat": 52.1782689,
         "nLong": 5.17942168
       }
     },
     {
       "name": "Den Haag Laan van NOI",
       "loc": {
         "nLat": 52.07891953,
         "nLong": 4.34275985
       }
     },
     {
       "name": "Den Haag HS",
       "loc": {
         "nLat": 52.06888091,
         "nLong": 4.32088269
       }
     },
     {
       "name": "Delft",
       "loc": {
         "nLat": 52.00665045,
         "nLong": 4.35711593
       }
     },
     {
       "name": "Bunnik",
       "loc": {
         "nLat": 52.06313876,
         "nLong": 5.19401329
       }
     },
     {
       "name": "Meppel",
       "loc": {
         "nLat": 52.69088651,
         "nLong": 6.19752825
       }
     },
     {
       "name": "Dalfsen",
       "loc": {
         "nLat": 52.49822133,
         "nLong": 6.25949451
       }
     },
     {
       "name": "Borne",
       "loc": {
         "nLat": 52.29864373,
         "nLong": 6.74841692
       }
     },
     {
       "name": "Hardenberg",
       "loc": {
         "nLat": 52.57112543,
         "nLong": 6.62681622
       }
     },
     {
       "name": "Enschede De Eschmarke",
       "loc": {
         "nLat": 52.22121645,
         "nLong": 6.95133911
       }
     },
     {
       "name": "'t Harde",
       "loc": {
         "nLat": 52.40903823,
         "nLong": 5.89278858
       }
     },
     {
       "name": "Rilland-Bath",
       "loc": {
         "nLat": 51.42262889,
         "nLong": 4.16086003
       }
     },
     {
       "name": "Bergen op Zoom",
       "loc": {
         "nLat": 51.49488981,
         "nLong": 4.29619857
       }
     },
     {
       "name": "Vlissingen",
       "loc": {
         "nLat": 51.44666706,
         "nLong": 3.59516819
       }
     },
     {
       "name": "Lage Zwaluwe",
       "loc": {
         "nLat": 51.68982101,
         "nLong": 4.66388994
       }
     },
     {
       "name": "Dordrecht",
       "loc": {
         "nLat": 51.80726357,
         "nLong": 4.66754594
       }
     },
     {
       "name": "Rotterdam Lombardijen",
       "loc": {
         "nLat": 51.88030663,
         "nLong": 4.53108924
       }
     },
     {
       "name": "Rotterdam Blaak",
       "loc": {
         "nLat": 51.9196026,
         "nLong": 4.48972495
       }
     },
     {
       "name": "Sliedrecht",
       "loc": {
         "nLat": 51.82958859,
         "nLong": 4.77825683
       }
     },
     {
       "name": "Rotterdam Alexander",
       "loc": {
         "nLat": 51.95181243,
         "nLong": 4.55371371
       }
     },
     {
       "name": "Leerdam",
       "loc": {
         "nLat": 51.89466309,
         "nLong": 5.09363714
       }
     },
     {
       "name": "Mook Molenhoek",
       "loc": {
         "nLat": 51.7679588,
         "nLong": 5.8797636
       }
     },
     {
       "name": "Stadskanaal Hoofdstation",
       "loc": {
         "nLat": 52.99594443,
         "nLong": 6.93580572
       }
     },
     {
       "name": "Haren",
       "loc": {
         "nLat": 53.17625366,
         "nLong": 6.61747066
       }
     },
     {
       "name": "Mantgum",
       "loc": {
         "nLat": 53.13006607,
         "nLong": 5.71345389
       }
     },
     {
       "name": "Feanwalden",
       "loc": {
         "nLat": 53.23500185,
         "nLong": 5.98959046
       }
     },
     {
       "name": "Harlingen Haven",
       "loc": {
         "nLat": 53.17470003,
         "nLong": 5.4114046
       }
     },
     {
       "name": "Deinum",
       "loc": {
         "nLat": 53.18868592,
         "nLong": 5.72766014
       }
     },
     {
       "name": "Franeker",
       "loc": {
         "nLat": 53.18240903,
         "nLong": 5.55017564
       }
     },
     {
       "name": "Delfzijl West",
       "loc": {
         "nLat": 53.3320159,
         "nLong": 6.90718859
       }
     },
     {
       "name": "Amsterdam Bijlmer ArenA",
       "loc": {
         "nLat": 52.31135659,
         "nLong": 4.9480461
       }
     },
     {
       "name": "Amsterdam RAI",
       "loc": {
         "nLat": 52.33676285,
         "nLong": 4.89068958
       }
     },
     {
       "name": "Lelystad Centrum",
       "loc": {
         "nLat": 52.50793306,
         "nLong": 5.47286983
       }
     },
     {
       "name": "Weesp",
       "loc": {
         "nLat": 52.31158728,
         "nLong": 5.04512038
       }
     },
     {
       "name": "Almere Buiten",
       "loc": {
         "nLat": 52.39427699,
         "nLong": 5.27811991
       }
     },
     {
       "name": "Helmond Brouwhuis",
       "loc": {
         "nLat": 51.47062783,
         "nLong": 5.70131375
       }
     },
     {
       "name": "Ede Centrum",
       "loc": {
         "nLat": 52.04323282,
         "nLong": 5.66801086
       }
     },
     {
       "name": "Culemborg",
       "loc": {
         "nLat": 51.94671065,
         "nLong": 5.22690498
       }
     },
     {
       "name": "Utrecht Lunetten",
       "loc": {
         "nLat": 52.06743786,
         "nLong": 5.14232383
       }
     },
     {
       "name": "Waddinxveen Triangel",
       "loc": {
         "nLat": 52.02727031,
         "nLong": 4.64910772
       }
     },
     {
       "name": "Hoorn",
       "loc": {
         "nLat": 52.64523617,
         "nLong": 5.05455659
       }
     },
     {
       "name": "Uitgeest",
       "loc": {
         "nLat": 52.52224968,
         "nLong": 4.70134737
       }
     },
     {
       "name": "Halfweg-Zwanenburg",
       "loc": {
         "nLat": 52.38563121,
         "nLong": 4.7485862
       }
     },
     {
       "name": "Purmerend Weidevenne",
       "loc": {
         "nLat": 52.49603562,
         "nLong": 4.93403439
       }
     },
     {
       "name": "Enkhuizen",
       "loc": {
         "nLat": 52.69933676,
         "nLong": 5.28570903
       }
     },
     {
       "name": "Castricum",
       "loc": {
         "nLat": 52.54532984,
         "nLong": 4.65912067
       }
     },
     {
       "name": "Haarlem",
       "loc": {
         "nLat": 52.3881283,
         "nLong": 4.63792168
       }
     },
     {
       "name": "Houthem-St.Gerlach",
       "loc": {
         "nLat": 50.87339212,
         "nLong": 5.79648364
       }
     },
     {
       "name": "Reuver",
       "loc": {
         "nLat": 51.28301526,
         "nLong": 6.07938955
       }
     },
     {
       "name": "Landgraaf",
       "loc": {
         "nLat": 50.89651233,
         "nLong": 6.01977237
       }
     },
     {
       "name": "Hoensbroek",
       "loc": {
         "nLat": 50.90504097,
         "nLong": 5.93180399
       }
     },
     {
       "name": "Schinnen",
       "loc": {
         "nLat": 50.93893993,
         "nLong": 5.87512567
       }
     },
     {
       "name": "Olst",
       "loc": {
         "nLat": 52.3355918,
         "nLong": 6.11347422
       }
     },
     {
       "name": "Beilen",
       "loc": {
         "nLat": 52.85503022,
         "nLong": 6.52132215
       }
     },
     {
       "name": "Assen",
       "loc": {
         "nLat": 52.99208556,
         "nLong": 6.57124282
       }
     },
     {
       "name": "Dronten",
       "loc": {
         "nLat": 52.53441149,
         "nLong": 5.72088963
       }
     },
     {
       "name": "Wolvega",
       "loc": {
         "nLat": 52.88080848,
         "nLong": 6.00402448
       }
     },
     {
       "name": "Deventer Colmschate",
       "loc": {
         "nLat": 52.25030669,
         "nLong": 6.21422548
       }
     },
     {
       "name": "Enschede Kennispark",
       "loc": {
         "nLat": 52.23719357,
         "nLong": 6.83915907
       }
     },
     {
       "name": "Hengelo",
       "loc": {
         "nLat": 52.2617428,
         "nLong": 6.79382877
       }
     },
     {
       "name": "Dalen",
       "loc": {
         "nLat": 52.69391696,
         "nLong": 6.75804932
       }
     },
     {
       "name": "Apeldoorn",
       "loc": {
         "nLat": 52.20922485,
         "nLong": 5.97176223
       }
     },
     {
       "name": "Emmen Zuid",
       "loc": {
         "nLat": 52.74853738,
         "nLong": 6.87411924
       }
     },
     {
       "name": "Rotterdam Zuid",
       "loc": {
         "nLat": 51.90456587,
         "nLong": 4.51016639
       }
     },
     {
       "name": "Gorinchem",
       "loc": {
         "nLat": 51.83382482,
         "nLong": 4.96765099
       }
     },
     {
       "name": "Sliedrecht Baanhoek",
       "loc": {
         "nLat": 51.82873299,
         "nLong": 4.74258142
       }
     },
     {
       "name": "Zwijndrecht",
       "loc": {
         "nLat": 51.81549977,
         "nLong": 4.64062787
       }
     },
     {
       "name": "Capelle Schollevaar",
       "loc": {
         "nLat": 51.95410909,
         "nLong": 4.58409037
       }
     },
     {
       "name": "Boven Hardinxveld",
       "loc": {
         "nLat": 51.83247014,
         "nLong": 4.87954218
       }
     },
     {
       "name": "Laarwald (D)",
       "loc": {
         "nLat": 52.6242568,
         "nLong": 6.76057564
       }
     },
     {
       "name": "Twello",
       "loc": {
         "nLat": 52.23791485,
         "nLong": 6.09939132
       }
     },
     {
       "name": "Enschede",
       "loc": {
         "nLat": 52.22250242,
         "nLong": 6.8896894
       }
     },
     {
       "name": "Oldenzaal",
       "loc": {
         "nLat": 52.30625535,
         "nLong": 6.93419842
       }
     },
     {
       "name": "Heino",
       "loc": {
         "nLat": 52.42772976,
         "nLong": 6.22080361
       }
     },
     {
       "name": "Hengelo Gezondheidspark",
       "loc": {
         "nLat": 52.26164547,
         "nLong": 6.76779359
       }
     },
     {
       "name": "Daarlerveen",
       "loc": {
         "nLat": 52.4412458,
         "nLong": 6.57593206
       }
     },
     {
       "name": "Glanerbrug",
       "loc": {
         "nLat": 52.21855188,
         "nLong": 6.97518969
       }
     },
     {
       "name": "Nunspeet",
       "loc": {
         "nLat": 52.37086678,
         "nLong": 5.78467694
       }
     },
     {
       "name": "Roosendaal",
       "loc": {
         "nLat": 51.54063199,
         "nLong": 4.45898978
       }
     },
     {
       "name": "Krabbendijke",
       "loc": {
         "nLat": 51.43329939,
         "nLong": 4.117154
       }
     },
     {
       "name": "Oudenbosch",
       "loc": {
         "nLat": 51.58784393,
         "nLong": 4.53345162
       }
     },
     {
       "name": "Rotterdam Stadion",
       "loc": {
         "nLat": 51.89410593,
         "nLong": 4.51904394
       }
     },
     {
       "name": "Rotterdam Centraal",
       "loc": {
         "nLat": 51.92433977,
         "nLong": 4.46648536
       }
     },
     {
       "name": "Arkel",
       "loc": {
         "nLat": 51.87218565,
         "nLong": 4.99311163
       }
     },
     {
       "name": "Dordrecht Zuid",
       "loc": {
         "nLat": 51.79004732,
         "nLong": 4.67147311
       }
     },
     {
       "name": "Dordrecht Stadspolders",
       "loc": {
         "nLat": 51.8018663,
         "nLong": 4.7169409
       }
     },
     {
       "name": "Hardinxveld-Giessendam",
       "loc": {
         "nLat": 51.83044661,
         "nLong": 4.8354625
       }
     },
     {
       "name": "Tilburg",
       "loc": {
         "nLat": 51.56070483,
         "nLong": 5.08339541
       }
     },
     {
       "name": "Zuidbroek",
       "loc": {
         "nLat": 53.15938564,
         "nLong": 6.86782636
       }
     },
     {
       "name": "Essen (B)",
       "loc": {
         "nLat": 51.46270533,
         "nLong": 4.45118117
       }
     },
     {
       "name": "Houten Castellum",
       "loc": {
         "nLat": 52.01674468,
         "nLong": 5.17955839
       }
     },
     {
       "name": "De Westereen",
       "loc": {
         "nLat": 53.24818144,
         "nLong": 6.03488286
       }
     },
     {
       "name": "Almere Poort",
       "loc": {
         "nLat": 52.34275696,
         "nLong": 5.15219434
       }
     },
     {
       "name": "Amsterdam Holendrecht",
       "loc": {
         "nLat": 52.29487365,
         "nLong": 4.96298477
       }
     },
     {
       "name": "Utrecht Centraal",
       "loc": {
         "nLat": 52.09078674,
         "nLong": 5.10892731
       }
     },
     {
       "name": "Vleuten",
       "loc": {
         "nLat": 52.10272925,
         "nLong": 5.01074198
       }
     },
     {
       "name": "Ede-Wageningen",
       "loc": {
         "nLat": 52.02722543,
         "nLong": 5.67521049
       }
     },
     {
       "name": "Santpoort Zuid",
       "loc": {
         "nLat": 52.42022693,
         "nLong": 4.63133682
       }
     },
     {
       "name": "Overveen",
       "loc": {
         "nLat": 52.39085434,
         "nLong": 4.60771554
       }
     },
     {
       "name": "Santpoort Noord",
       "loc": {
         "nLat": 52.43384208,
         "nLong": 4.63253075
       }
     },
     {
       "name": "Heemskerk",
       "loc": {
         "nLat": 52.49541028,
         "nLong": 4.68709762
       }
     },
     {
       "name": "Zaandam Kogerveld",
       "loc": {
         "nLat": 52.45674074,
         "nLong": 4.82081355
       }
     },
     {
       "name": "Purmerend",
       "loc": {
         "nLat": 52.50302902,
         "nLong": 4.95359465
       }
     },
     {
       "name": "Den Helder",
       "loc": {
         "nLat": 52.95498262,
         "nLong": 4.76107934
       }
     },
     {
       "name": "Alkmaar Noord",
       "loc": {
         "nLat": 52.64366323,
         "nLong": 4.76372615
       }
     },
     {
       "name": "Haarlem Spaarnwoude",
       "loc": {
         "nLat": 52.38297169,
         "nLong": 4.67321613
       }
     },
     {
       "name": "Susteren",
       "loc": {
         "nLat": 51.06070981,
         "nLong": 5.86282099
       }
     },
     {
       "name": "Geldrop",
       "loc": {
         "nLat": 51.41998842,
         "nLong": 5.55065912
       }
     },
     {
       "name": "Geleen-Lutterade",
       "loc": {
         "nLat": 50.97552924,
         "nLong": 5.82455465
       }
     },
     {
       "name": "Bunde",
       "loc": {
         "nLat": 50.89697773,
         "nLong": 5.7365966
       }
     },
     {
       "name": "Geleen Oost",
       "loc": {
         "nLat": 50.96730375,
         "nLong": 5.84336712
       }
     },
     {
       "name": "Spaubeek",
       "loc": {
         "nLat": 50.94348636,
         "nLong": 5.84933548
       }
     },
     {
       "name": "Valkenburg",
       "loc": {
         "nLat": 50.86927528,
         "nLong": 5.83288376
       }
     },
     {
       "name": "Maarheeze",
       "loc": {
         "nLat": 51.30498301,
         "nLong": 5.62979204
       }
     },
     {
       "name": "Coevorden",
       "loc": {
         "nLat": 52.66297708,
         "nLong": 6.7355013
       }
     },
     {
       "name": "Raalte",
       "loc": {
         "nLat": 52.39107715,
         "nLong": 6.27874562
       }
     },
     {
       "name": "Harderwijk",
       "loc": {
         "nLat": 52.33761968,
         "nLong": 5.62030927
       }
     },
     {
       "name": "Nijverdal",
       "loc": {
         "nLat": 52.36594542,
         "nLong": 6.47060091
       }
     },
     {
       "name": "Vroomshoop",
       "loc": {
         "nLat": 52.457083,
         "nLong": 6.56966311
       }
     },
     {
       "name": "Wezep",
       "loc": {
         "nLat": 52.4540324,
         "nLong": 6.00255087
       }
     },
     {
       "name": "Middelburg",
       "loc": {
         "nLat": 51.49543813,
         "nLong": 3.61917255
       }
     },
     {
       "name": "Kapelle-Biezelinge",
       "loc": {
         "nLat": 51.48086302,
         "nLong": 3.95558505
       }
     },
     {
       "name": "Breda",
       "loc": {
         "nLat": 51.59537105,
         "nLong": 4.78011851
       }
     },
     {
       "name": "Breda Prinsenbeek",
       "loc": {
         "nLat": 51.60700172,
         "nLong": 4.72053022
       }
     },
     {
       "name": "Rotterdam Noord",
       "loc": {
         "nLat": 51.94246382,
         "nLong": 4.48307224
       }
     },
     {
       "name": "Spekholzerheide",
       "loc": {
         "nLat": 50.85360944,
         "nLong": 6.02597447
       }
     },
     {
       "name": "Klimmen-Ransdaal",
       "loc": {
         "nLat": 50.86639594,
         "nLong": 5.89045495
       }
     },
     {
       "name": "Nuth",
       "loc": {
         "nLat": 50.91947393,
         "nLong": 5.8929806
       }
     },
     {
       "name": "Tegelen",
       "loc": {
         "nLat": 51.33830823,
         "nLong": 6.14137741
       }
     },
     {
       "name": "Roermond",
       "loc": {
         "nLat": 51.19239581,
         "nLong": 5.99432106
       }
     },
     {
       "name": "Neerpelt (B)",
       "loc": {
         "nLat": 51.22375114,
         "nLong": 5.43787329
       }
     },
     {
       "name": "Klarenbeek",
       "loc": {
         "nLat": 52.1781008,
         "nLong": 6.08400514
       }
     },
     {
       "name": "Oss West",
       "loc": {
         "nLat": 51.75839909,
         "nLong": 5.5067959
       }
     },
     {
       "name": "Winterswijk",
       "loc": {
         "nLat": 51.96784954,
         "nLong": 6.71516932
       }
     },
     {
       "name": "Delden",
       "loc": {
         "nLat": 52.26007113,
         "nLong": 6.71458411
       }
     },
     {
       "name": "Nijmegen Heyendaal",
       "loc": {
         "nLat": 51.82717304,
         "nLong": 5.8672975
       }
     },
     {
       "name": "Lochem",
       "loc": {
         "nLat": 52.16678393,
         "nLong": 6.42712564
       }
     },
     {
       "name": "Amersfoort Vathorst",
       "loc": {
         "nLat": 52.19265222,
         "nLong": 5.43395977
       }
     },
     {
       "name": "Barneveld Noord",
       "loc": {
         "nLat": 52.16067185,
         "nLong": 5.59892258
       }
     },
     {
       "name": "Hilversum Sportpark",
       "loc": {
         "nLat": 52.216589,
         "nLong": 5.18732046
       }
     },
     {
       "name": "Nijkerk",
       "loc": {
         "nLat": 52.2221565,
         "nLong": 5.49368531
       }
     },
     {
       "name": "Breukelen",
       "loc": {
         "nLat": 52.17120642,
         "nLong": 4.99063502
       }
     },
     {
       "name": "Nieuw Vennep",
       "loc": {
         "nLat": 52.25872953,
         "nLong": 4.64518394
       }
     },
     {
       "name": "Kampen",
       "loc": {
         "nLat": 52.55948492,
         "nLong": 5.92237049
       }
     },
     {
       "name": "Rijssen",
       "loc": {
         "nLat": 52.31173008,
         "nLong": 6.5192718
       }
     },
     {
       "name": "Vriezenveen",
       "loc": {
         "nLat": 52.40218616,
         "nLong": 6.60037999
       }
     },
     {
       "name": "Wierden",
       "loc": {
         "nLat": 52.36149107,
         "nLong": 6.59199879
       }
     },
     {
       "name": "Kruiningen-Yerseke",
       "loc": {
         "nLat": 51.46551135,
         "nLong": 4.03650733
       }
     },
     {
       "name": "Arnemuiden",
       "loc": {
         "nLat": 51.50148625,
         "nLong": 3.66899444
       }
     },
     {
       "name": "Vierlingsbeek",
       "loc": {
         "nLat": 51.59205512,
         "nLong": 5.997067
       }
     },
     {
       "name": "Zuidhorn",
       "loc": {
         "nLat": 53.24828981,
         "nLong": 6.40629546
       }
     },
     {
       "name": "Stedum",
       "loc": {
         "nLat": 53.32659213,
         "nLong": 6.68857059
       }
     },
     {
       "name": "Workum",
       "loc": {
         "nLat": 52.97209372,
         "nLong": 5.45657543
       }
     },
     {
       "name": "Warffum",
       "loc": {
         "nLat": 53.39003275,
         "nLong": 6.56664273
       }
     },
     {
       "name": "Hurdegaryp",
       "loc": {
         "nLat": 53.2190181,
         "nLong": 5.93487304
       }
     },
     {
       "name": "Hoogezand-Sappemeer",
       "loc": {
         "nLat": 53.15971776,
         "nLong": 6.77160444
       }
     },
     {
       "name": "Wildervank",
       "loc": {
         "nLat": 53.08369598,
         "nLong": 6.87073666
       }
     },
     {
       "name": "Bareveld",
       "loc": {
         "nLat": 53.05336486,
         "nLong": 6.85020579
       }
     },
     {
       "name": "Scheemda",
       "loc": {
         "nLat": 53.16545329,
         "nLong": 6.97789054
       }
     },
     {
       "name": "Groningen Noord",
       "loc": {
         "nLat": 53.22992944,
         "nLong": 6.55636938
       }
     },
     {
       "name": "Leeuwarden",
       "loc": {
         "nLat": 53.1957464,
         "nLong": 5.78931813
       }
     },
     {
       "name": "Voorhout",
       "loc": {
         "nLat": 52.22404032,
         "nLong": 4.48451893
       }
     },
     {
       "name": "Sassenheim",
       "loc": {
         "nLat": 52.21534547,
         "nLong": 4.51763413
       }
     },
     {
       "name": "Zoetermeer",
       "loc": {
         "nLat": 52.04760446,
         "nLong": 4.47731958
       }
     },
     {
       "name": "Den Haag Moerwijk",
       "loc": {
         "nLat": 52.0537573,
         "nLong": 4.30854334
       }
     },
     {
       "name": "De Vink",
       "loc": {
         "nLat": 52.14696859,
         "nLong": 4.45605321
       }
     },
     {
       "name": "Boskoop Snijdelwijk",
       "loc": {
         "nLat": 52.06764628,
         "nLong": 4.64626895
       }
     },
     {
       "name": "Woerden",
       "loc": {
         "nLat": 52.0848118,
         "nLong": 4.89277428
       }
     },
     {
       "name": "Geldermalsen",
       "loc": {
         "nLat": 51.88270354,
         "nLong": 5.27140228
       }
     },
     {
       "name": "Rhenen",
       "loc": {
         "nLat": 51.95873483,
         "nLong": 5.57854583
       }
     },
     {
       "name": "Maarn",
       "loc": {
         "nLat": 52.0640601,
         "nLong": 5.37076806
       }
     },
     {
       "name": "Utrecht Terwijde",
       "loc": {
         "nLat": 52.1003521,
         "nLong": 5.04165915
       }
     },
     {
       "name": "Tiel Passewaaij",
       "loc": {
         "nLat": 51.87331349,
         "nLong": 5.39104996
       }
     },
     {
       "name": "Utrecht Vaartsche Rijn",
       "loc": {
         "nLat": 52.07839839,
         "nLong": 5.12337303
       }
     },
     {
       "name": "Utrecht Maliebaan",
       "loc": {
         "nLat": 52.08550548,
         "nLong": 5.13040719
       }
     },
     {
       "name": "Gouda Goverwelle",
       "loc": {
         "nLat": 52.0150832,
         "nLong": 4.74103964
       }
     },
     {
       "name": "Heemstede-Aerdenhout",
       "loc": {
         "nLat": 52.35973284,
         "nLong": 4.60689709
       }
     },
     {
       "name": "Zandvoort aan Zee",
       "loc": {
         "nLat": 52.37572227,
         "nLong": 4.53145383
       }
     },
     {
       "name": "Driehuis",
       "loc": {
         "nLat": 52.44269778,
         "nLong": 4.63863064
       }
     },
     {
       "name": "Zaandam",
       "loc": {
         "nLat": 52.43865052,
         "nLong": 4.81373591
       }
     },
     {
       "name": "Koog aan de Zaan",
       "loc": {
         "nLat": 52.45904893,
         "nLong": 4.80562943
       }
     },
     {
       "name": "Ommen",
       "loc": {
         "nLat": 52.50970963,
         "nLong": 6.41728002
       }
     },
     {
       "name": "Wijhe",
       "loc": {
         "nLat": 52.3910454,
         "nLong": 6.14107649
       }
     },
     {
       "name": "Hoogeveen",
       "loc": {
         "nLat": 52.73360354,
         "nLong": 6.47275643
       }
     },
     {
       "name": "Kampen Zuid",
       "loc": {
         "nLat": 52.53292239,
         "nLong": 5.91341177
       }
     },
     {
       "name": "Weener (D)",
       "loc": {
         "nLat": 53.162695,
         "nLong": 7.34134925
       }
     },
     {
       "name": "Heiloo",
       "loc": {
         "nLat": 52.60031555,
         "nLong": 4.70138642
       }
     },
     {
       "name": "Swalmen",
       "loc": {
         "nLat": 51.23515591,
         "nLong": 6.03117113
       }
     },
     {
       "name": "Weert",
       "loc": {
         "nLat": 51.24875409,
         "nLong": 5.70261159
       }
     },
     {
       "name": "Beek-Elsloo",
       "loc": {
         "nLat": 50.94712011,
         "nLong": 5.78588139
       }
     },
     {
       "name": "Sittard",
       "loc": {
         "nLat": 51.00226161,
         "nLong": 5.85905574
       }
     },
     {
       "name": "Simpelveld",
       "loc": {
         "nLat": 50.82785856,
         "nLong": 5.96569784
       }
     },
     {
       "name": "Voerendaal",
       "loc": {
         "nLat": 50.88682265,
         "nLong": 5.92937278
       }
     },
     {
       "name": "Eygelshoven Markt",
       "loc": {
         "nLat": 50.89606653,
         "nLong": 6.05744692
       }
     },
     {
       "name": "Schin op Geul",
       "loc": {
         "nLat": 50.85595035,
         "nLong": 5.8716385
       }
     },
     {
       "name": "Goor",
       "loc": {
         "nLat": 52.23027741,
         "nLong": 6.58474217
       }
     },
     {
       "name": "Hilversum",
       "loc": {
         "nLat": 52.22642112,
         "nLong": 5.18175859
       }
     },
     {
       "name": "Amersfoort Centraal",
       "loc": {
         "nLat": 52.15351802,
         "nLong": 5.37099885
       }
     },
     {
       "name": "Den Dolder",
       "loc": {
         "nLat": 52.14061469,
         "nLong": 5.24352061
       }
     },
     {
       "name": "Naarden-Bussum",
       "loc": {
         "nLat": 52.28029351,
         "nLong": 5.15725792
       }
     },
     {
       "name": "Bilthoven",
       "loc": {
         "nLat": 52.13018871,
         "nLong": 5.2047062
       }
     },
     {
       "name": "Amsterdam Lelylaan",
       "loc": {
         "nLat": 52.35788448,
         "nLong": 4.83401026
       }
     },
     {
       "name": "Amsterdam Zuid",
       "loc": {
         "nLat": 52.33885064,
         "nLong": 4.87236872
       }
     },
     {
       "name": "Deurne",
       "loc": {
         "nLat": 51.45612435,
         "nLong": 5.78790032
       }
     },
     {
       "name": "Tilburg Universiteit",
       "loc": {
         "nLat": 51.56515395,
         "nLong": 5.05048263
       }
     },
     {
       "name": "Venlo",
       "loc": {
         "nLat": 51.36410044,
         "nLong": 6.17224526
       }
     },
     {
       "name": "Bedum",
       "loc": {
         "nLat": 53.30675207,
         "nLong": 6.59187879
       }
     },
     {
       "name": "Usquert",
       "loc": {
         "nLat": 53.4009748,
         "nLong": 6.60923793
       }
     },
     {
       "name": "Veendam",
       "loc": {
         "nLat": 53.10505889,
         "nLong": 6.88659502
       }
     },
     {
       "name": "Sneek Noord",
       "loc": {
         "nLat": 53.03992064,
         "nLong": 5.66265269
       }
     },
     {
       "name": "Leeuwarden Camminghaburen",
       "loc": {
         "nLat": 53.20219389,
         "nLong": 5.84323773
       }
     },
     {
       "name": "Groningen Europapark",
       "loc": {
         "nLat": 53.20473005,
         "nLong": 6.58569709
       }
     },
     {
       "name": "Delfzijl",
       "loc": {
         "nLat": 53.33388887,
         "nLong": 6.92385904
       }
     },
     {
       "name": "Eemshaven",
       "loc": {
         "nLat": 53.45877311,
         "nLong": 6.83003991
       }
     },
     {
       "name": "Leiden Centraal",
       "loc": {
         "nLat": 52.16651587,
         "nLong": 4.48229211
       }
     },
     {
       "name": "Voorburg",
       "loc": {
         "nLat": 52.06644194,
         "nLong": 4.35999842
       }
     },
     {
       "name": "Delft Campus",
       "loc": {
         "nLat": 51.9911655,
         "nLong": 4.36464974
       }
     },
     {
       "name": "Kesteren",
       "loc": {
         "nLat": 51.93129425,
         "nLong": 5.58367771
       }
     },
     {
       "name": "Alphen aan den Rijn",
       "loc": {
         "nLat": 52.1246383,
         "nLong": 4.65731305
       }
     },
     {
       "name": "Utrecht Leidsche Rijn",
       "loc": {
         "nLat": 52.09892834,
         "nLong": 5.06582369
       }
     },
     {
       "name": "Wolfheze",
       "loc": {
         "nLat": 52.00512821,
         "nLong": 5.79513207
       }
     },
     {
       "name": "Zaltbommel",
       "loc": {
         "nLat": 51.8077595,
         "nLong": 5.26340237
       }
     },
     {
       "name": "Lunteren",
       "loc": {
         "nLat": 52.08515987,
         "nLong": 5.62427156
       }
     },
     {
       "name": "Gouda",
       "loc": {
         "nLat": 52.01739539,
         "nLong": 4.70633393
       }
     },
     {
       "name": "Purmerend Overwhere",
       "loc": {
         "nLat": 52.51167582,
         "nLong": 4.96887372
       }
     },
     {
       "name": "Hoorn Kersenboogerd",
       "loc": {
         "nLat": 52.65312589,
         "nLong": 5.08454049
       }
     },
     {
       "name": "Zaandijk Zaanse Schans",
       "loc": {
         "nLat": 52.46933744,
         "nLong": 4.80515567
       }
     },
     {
       "name": "Krommenie-Assendelft",
       "loc": {
         "nLat": 52.49500915,
         "nLong": 4.75486971
       }
     },
     {
       "name": "Schiedam Centrum",
       "loc": {
         "nLat": 51.92171202,
         "nLong": 4.4104245
       }
     },
     {
       "name": "Beesd",
       "loc": {
         "nLat": 51.89946713,
         "nLong": 5.19600932
       }
     },
     {
       "name": "Bad Bentheim (D)",
       "loc": {
         "nLat": 52.31002281,
         "nLong": 7.15831196
       }
     },
     {
       "name": "Bunde (D)",
       "loc": {
         "nLat": 53.18226571,
         "nLong": 7.2669002
       }
     },
     {
       "name": "Hamont (B)",
       "loc": {
         "nLat": 51.24629051,
         "nLong": 5.54353584
       }
     },
     {
       "name": "Opheusden",
       "loc": {
         "nLat": 51.92603278,
         "nLong": 5.63741662
       }
     },
     {
       "name": "Varsseveld",
       "loc": {
         "nLat": 51.93727784,
         "nLong": 6.45884679
       }
     },
     {
       "name": "Gaanderen",
       "loc": {
         "nLat": 51.93052311,
         "nLong": 6.34919624
       }
     },
     {
       "name": "Rheden",
       "loc": {
         "nLat": 52.01001634,
         "nLong": 6.03081728
       }
     },
     {
       "name": "Arnhem Zuid",
       "loc": {
         "nLat": 51.95486168,
         "nLong": 5.85191936
       }
     },
     {
       "name": "Arnhem Centraal",
       "loc": {
         "nLat": 51.98473044,
         "nLong": 5.9014907
       }
     },
     {
       "name": "Duiven",
       "loc": {
         "nLat": 51.94350133,
         "nLong": 6.01428681
       }
     },
     {
       "name": "Terborg",
       "loc": {
         "nLat": 51.9226417,
         "nLong": 6.36423394
       }
     },
     {
       "name": "Ravenstein",
       "loc": {
         "nLat": 51.79448092,
         "nLong": 5.63664172
       }
     },
     {
       "name": "Aalten",
       "loc": {
         "nLat": 51.92126569,
         "nLong": 6.57864742
       }
     },
     {
       "name": "Nijmegen Dukenburg",
       "loc": {
         "nLat": 51.82400505,
         "nLong": 5.79478103
       }
     },
     {
       "name": "Diemen",
       "loc": {
         "nLat": 52.34518548,
         "nLong": 4.96761101
       }
     },
     {
       "name": "Amsterdam Science Park",
       "loc": {
         "nLat": 52.35277431,
         "nLong": 4.94866369
       }
     },
     {
       "name": "Hoofddorp",
       "loc": {
         "nLat": 52.29311471,
         "nLong": 4.6996818
       }
     },
     {
       "name": "Duivendrecht",
       "loc": {
         "nLat": 52.32306227,
         "nLong": 4.93706145
       }
     },
     {
       "name": "Amsterdam Arena",
       "loc": {
         "nLat": 52.31700345,
         "nLong": 4.94152262
       }
     },
     {
       "name": "Almere Parkwijk",
       "loc": {
         "nLat": 52.37676095,
         "nLong": 5.24497368
       }
     },
     {
       "name": "Oisterwijk",
       "loc": {
         "nLat": 51.58204393,
         "nLong": 5.19326406
       }
     },
     {
       "name": "Eindhoven Centraal",
       "loc": {
         "nLat": 51.44299644,
         "nLong": 5.47983018
       }
     },
     {
       "name": "Helmond Brandevoort",
       "loc": {
         "nLat": 51.46256977,
         "nLong": 5.60927805
       }
     },
     {
       "name": "Eindhoven Stadion",
       "loc": {
         "nLat": 51.44263608,
         "nLong": 5.46891233
       }
     },
     {
       "name": "Roodeschool",
       "loc": {
         "nLat": 53.4204738,
         "nLong": 6.75779642
       }
     },
     {
       "name": "Sneek",
       "loc": {
         "nLat": 53.03263953,
         "nLong": 5.65175455
       }
     },
     {
       "name": "Den Haag Ypenburg",
       "loc": {
         "nLat": 52.05364488,
         "nLong": 4.39922163
       }
     },
     {
       "name": "Den Haag Centraal",
       "loc": {
         "nLat": 52.08086867,
         "nLong": 4.32450683
       }
     },
     {
       "name": "Rijswijk",
       "loc": {
         "nLat": 52.0384006,
         "nLong": 4.32095267
       }
     },
     {
       "name": "Voorschoten",
       "loc": {
         "nLat": 52.12703207,
         "nLong": 4.43466474
       }
     },
     {
       "name": "Waddinxveen",
       "loc": {
         "nLat": 52.04405659,
         "nLong": 4.64989525
       }
     },
     {
       "name": "Veenendaal West",
       "loc": {
         "nLat": 52.02822705,
         "nLong": 5.53118036
       }
     },
     {
       "name": "Bodegraven",
       "loc": {
         "nLat": 52.08148061,
         "nLong": 4.74607657
       }
     },
     {
       "name": "'s-Hertogenbosch Oost",
       "loc": {
         "nLat": 51.70049986,
         "nLong": 5.31749226
       }
     },
     {
       "name": "Tilburg Reeshof",
       "loc": {
         "nLat": 51.57355363,
         "nLong": 4.99422025
       }
     },
     {
       "name": "Venray",
       "loc": {
         "nLat": 51.52648791,
         "nLong": 6.01455962
       }
     },
     {
       "name": "Vught",
       "loc": {
         "nLat": 51.65562926,
         "nLong": 5.29195384
       }
     },
     {
       "name": "Groningen",
       "loc": {
         "nLat": 53.21063987,
         "nLong": 6.56423033
       }
     },
     {
       "name": "Hindeloopen",
       "loc": {
         "nLat": 52.9464616,
         "nLong": 5.4231801
       }
     },
     {
       "name": "Winsum",
       "loc": {
         "nLat": 53.33038989,
         "nLong": 6.52024722
       }
     },
     {
       "name": "Appingedam",
       "loc": {
         "nLat": 53.32585895,
         "nLong": 6.86255653
       }
     },
     {
       "name": "Buitenpost",
       "loc": {
         "nLat": 53.25639007,
         "nLong": 6.14603925
       }
     },
     {
       "name": "Loppersum",
       "loc": {
         "nLat": 53.33479246,
         "nLong": 6.74739785
       }
     },
     {
       "name": "Apeldoorn Osseveld",
       "loc": {
         "nLat": 52.21536551,
         "nLong": 6.004942
       }
     },
     {
       "name": "Holten",
       "loc": {
         "nLat": 52.28410711,
         "nLong": 6.42132502
       }
     },
     {
       "name": "Hengelo Oost",
       "loc": {
         "nLat": 52.26821589,
         "nLong": 6.81769603
       }
     },
     {
       "name": "Almelo",
       "loc": {
         "nLat": 52.35798543,
         "nLong": 6.65395952
       }
     },
     {
       "name": "Maastricht Noord",
       "loc": {
         "nLat": 50.87023,
         "nLong": 5.71717457
       }
     },
     {
       "name": "Dronryp",
       "loc": {
         "nLat": 53.17773528,
         "nLong": 5.63485753
       }
     },
     {
       "name": "Heerlen Woonboulevard",
       "loc": {
         "nLat": 50.89632282,
         "nLong": 5.95400269
       }
     },
     {
       "name": "Gramsbergen",
       "loc": {
         "nLat": 52.61022286,
         "nLong": 6.67665596
       }
     },
     {
       "name": "Sauwerd",
       "loc": {
         "nLat": 53.29076779,
         "nLong": 6.5403671
       }
     },
     {
       "name": "Almelo de Riet",
       "loc": {
         "nLat": 52.34201833,
         "nLong": 6.66678513
       }
     },
     {
       "name": "Zwolle",
       "loc": {
         "nLat": 52.50468256,
         "nLong": 6.09208405
       }
     },
     {
       "name": "Zevenbergen",
       "loc": {
         "nLat": 51.64071652,
         "nLong": 4.60945817
       }
     },
     {
       "name": "Nijmegen Lent",
       "loc": {
         "nLat": 51.86320311,
         "nLong": 5.85961011
       }
     },
     {
       "name": "Koudum-Molkwerum",
       "loc": {
         "nLat": 52.90274601,
         "nLong": 5.41085286
       }
     },
     {
       "name": "Uithuizermeeden",
       "loc": {
         "nLat": 53.41393983,
         "nLong": 6.72028781
       }
     },
     {
       "name": "Steenwijk",
       "loc": {
         "nLat": 52.79177447,
         "nLong": 6.11283108
       }
     },
     {
       "name": "Stavoren",
       "loc": {
         "nLat": 52.88672254,
         "nLong": 5.36039078
       }
     },
     {
       "name": "Grou-Jirnsum",
       "loc": {
         "nLat": 53.08924628,
         "nLong": 5.82260102
       }
     },
     {
       "name": "Uithuizen",
       "loc": {
         "nLat": 53.4096436,
         "nLong": 6.67497795
       }
     },
     {
       "name": "Boxmeer",
       "loc": {
         "nLat": 51.64436892,
         "nLong": 5.93931567
       }
     },
     {
       "name": "Schagen",
       "loc": {
         "nLat": 52.78555424,
         "nLong": 4.80522813
       }
     },
     {
       "name": "Utrecht Overvecht",
       "loc": {
         "nLat": 52.10992249,
         "nLong": 5.1246907
       }
     },
     {
       "name": "Leiden Lammenschans",
       "loc": {
         "nLat": 52.14656461,
         "nLong": 4.49330397
       }
     },
     {
       "name": "Oss",
       "loc": {
         "nLat": 51.76522092,
         "nLong": 5.53112182
       }
     },
     {
       "name": "Kerkrade Centrum",
       "loc": {
         "nLat": 50.86091179,
         "nLong": 6.05717964
       }
     },
     {
       "name": "Rosmalen",
       "loc": {
         "nLat": 51.7151255,
         "nLong": 5.36948977
       }
     },
     {
       "name": "Winterswijk West",
       "loc": {
         "nLat": 51.97446193,
         "nLong": 6.70430306
       }
     },
     {
       "name": "Heerenveen IJsstadion",
       "loc": {
         "nLat": 52.93549957,
         "nLong": 5.94393479
       }
     },
     {
       "name": "Horst-Sevenum",
       "loc": {
         "nLat": 51.42699654,
         "nLong": 6.04118489
       }
     },
     {
       "name": "Utrecht Zuilen",
       "loc": {
         "nLat": 52.1032593,
         "nLong": 5.0893208
       }
     },
     {
       "name": "Musselkanaal-Valthermond",
       "loc": {
         "nLat": 52.93027042,
         "nLong": 7.00961365
       }
     },
     {
       "name": "Baflo",
       "loc": {
         "nLat": 53.36092851,
         "nLong": 6.51882783
       }
     },
     {
       "name": "Boskoop",
       "loc": {
         "nLat": 52.07729335,
         "nLong": 4.64667813
       }
     },
     {
       "name": "Bocholtz",
       "loc": {
         "nLat": 50.81702695,
         "nLong": 6.00560527
       }
     },
     {
       "name": "Amsterdam Muiderpoort",
       "loc": {
         "nLat": 52.3597441,
         "nLong": 4.93312202
       }
     },
     {
       "name": "Amsterdam Sloterdijk",
       "loc": {
         "nLat": 52.3891236,
         "nLong": 4.83738106
       }
     },
     {
       "name": "Barendrecht",
       "loc": {
         "nLat": 51.85524612,
         "nLong": 4.55233797
       }
     },
     {
       "name": "Dieren",
       "loc": {
         "nLat": 52.04469048,
         "nLong": 6.10293242
       }
     },
     {
       "name": "Voorst-Empe",
       "loc": {
         "nLat": 52.1573353,
         "nLong": 6.14421099
       }
     },
     {
       "name": "Beverwijk",
       "loc": {
         "nLat": 52.47868132,
         "nLong": 4.65681877
       }
     },
     {
       "name": "Nieuw Amsterdam",
       "loc": {
         "nLat": 52.71857962,
         "nLong": 6.84874011
       }
     },
     {
       "name": "Hilversum Media Park",
       "loc": {
         "nLat": 52.23754358,
         "nLong": 5.17418251
       }
     },
     {
       "name": "Nieuwerkerk a\/d IJssel",
       "loc": {
         "nLat": 51.96555763,
         "nLong": 4.61725165
       }
     },
     {
       "name": "MariÃ«nberg",
       "loc": {
         "nLat": 52.50889025,
         "nLong": 6.57426173
       }
     },
     {
       "name": "Goes",
       "loc": {
         "nLat": 51.4981506,
         "nLong": 3.89035721
       }
     },
     {
       "name": "Chevremont",
       "loc": {
         "nLat": 50.87595471,
         "nLong": 6.05955686
       }
     },
     {
       "name": "Harlingen",
       "loc": {
         "nLat": 53.17040134,
         "nLong": 5.42498039
       }
     },
     {
       "name": "Cuijk",
       "loc": {
         "nLat": 51.72702174,
         "nLong": 5.87403408
       }
     },
     {
       "name": "Soest",
       "loc": {
         "nLat": 52.17340231,
         "nLong": 5.31007613
       }
     },
     {
       "name": "Kaldenkirchen (D)",
       "loc": {
         "nLat": 51.32730546,
         "nLong": 6.20273366
       }
     },
     {
       "name": "Lanaken (B)",
       "loc": {
         "nLat": 50.88476756,
         "nLong": 5.65728378
       }
     },
     {
       "name": "Zwolle Stadshagen",
       "loc": {
         "nLat": 52.52764643,
         "nLong": 6.05146965
       }
     },
     {
       "name": "Veenendaal Centrum",
       "loc": {
         "nLat": 52.02006088,
         "nLong": 5.54881115
       }
     },
     {
       "name": "'s-Hertogenbosch",
       "loc": {
         "nLat": 51.69066793,
         "nLong": 5.29376036
       }
     },
     {
       "name": "Hillegom",
       "loc": {
         "nLat": 52.30311991,
         "nLong": 4.5660905
       }
     },
     {
       "name": "Blerick",
       "loc": {
         "nLat": 51.37229484,
         "nLong": 6.15525241
       }
     },
     {
       "name": "Heerhugowaard",
       "loc": {
         "nLat": 52.67035836,
         "nLong": 4.82384325
       }
     },
     {
       "name": "Doetinchem",
       "loc": {
         "nLat": 51.95840072,
         "nLong": 6.29567051
       }
     },
     {
       "name": "Heerenveen",
       "loc": {
         "nLat": 52.96239064,
         "nLong": 5.91341143
       }
     },
     {
       "name": "Akkrum",
       "loc": {
         "nLat": 53.04759059,
         "nLong": 5.84323874
       }
     },
     {
       "name": "Bovenkarspel Flora",
       "loc": {
         "nLat": 52.69618772,
         "nLong": 5.25460793
       }
     },
     {
       "name": "Hoogkarspel",
       "loc": {
         "nLat": 52.69076038,
         "nLong": 5.18484244
       }
     },
     {
       "name": "Den Haag Mariahoeve",
       "loc": {
         "nLat": 52.09088666,
         "nLong": 4.36984139
       }
     },
     {
       "name": "Driebergen-Zeist",
       "loc": {
         "nLat": 52.06526729,
         "nLong": 5.25849127
       }
     },
     {
       "name": "Brummen",
       "loc": {
         "nLat": 52.09083988,
         "nLong": 6.14693675
       }
     },
     {
       "name": "Zoetermeer Oost",
       "loc": {
         "nLat": 52.04638439,
         "nLong": 4.49288434
       }
     },
     {
       "name": "Heeze",
       "loc": {
         "nLat": 51.38489512,
         "nLong": 5.5697109
       }
     },
     {
       "name": "Vlissingen Souburg",
       "loc": {
         "nLat": 51.46469178,
         "nLong": 3.59507763
       }
     },
     {
       "name": "Etten-Leur",
       "loc": {
         "nLat": 51.57522962,
         "nLong": 4.63656166
       }
     },
     {
       "name": "Houten",
       "loc": {
         "nLat": 52.03442107,
         "nLong": 5.16786167
       }
     },
     {
       "name": "Hoevelaken",
       "loc": {
         "nLat": 52.16650394,
         "nLong": 5.45692355
       }
     },
     {
       "name": "Anna Paulowna",
       "loc": {
         "nLat": 52.86742638,
         "nLong": 4.81122193
       }
     },
     {
       "name": "Winschoten",
       "loc": {
         "nLat": 53.13911078,
         "nLong": 7.03581015
       }
     },
     {
       "name": "Alkmaar",
       "loc": {
         "nLat": 52.63776073,
         "nLong": 4.73890254
       }
     },
     {
       "name": "Hardinxveld Blauwe Zoom",
       "loc": {
         "nLat": 51.82964255,
         "nLong": 4.81581515
       }
     },
     {
       "name": "Eindhoven Strijp-S",
       "loc": {
         "nLat": 51.45074292,
         "nLong": 5.45649726
       }
     },
     {
       "name": "Grijpskerk",
       "loc": {
         "nLat": 53.25578402,
         "nLong": 6.31079592
       }
     },
     {
       "name": "Almere Centrum",
       "loc": {
         "nLat": 52.37508995,
         "nLong": 5.21813483
       }
     },
     {
       "name": "Bloemendaal",
       "loc": {
         "nLat": 52.40430392,
         "nLong": 4.62765545
       }
     },
     {
       "name": "Putten",
       "loc": {
         "nLat": 52.26534839,
         "nLong": 5.57561698
       }
     },
     {
       "name": "Eys-Wittem",
       "loc": {
         "nLat": 50.8233027,
         "nLong": 5.92441533
       }
     },
     {
       "name": "Kropswolde",
       "loc": {
         "nLat": 53.1616974,
         "nLong": 6.72226361
       }
     },
     {
       "name": "Wijlre",
       "loc": {
         "nLat": 50.83317557,
         "nLong": 5.89800061
       }
     },
     {
       "name": "Ermelo",
       "loc": {
         "nLat": 52.30122194,
         "nLong": 5.61448829
       }
     },
     {
       "name": "IJlst",
       "loc": {
         "nLat": 53.01457977,
         "nLong": 5.6157347
       }
     },
     {
       "name": "Den Helder Zuid",
       "loc": {
         "nLat": 52.93262205,
         "nLong": 4.76415182
       }
     },
     {
       "name": "Lansingerland-Zoetermeer",
       "loc": {
         "nLat": 52.04102251,
         "nLong": 4.5186744
       }
     },
     {
       "name": "Obdam",
       "loc": {
         "nLat": 52.67793004,
         "nLong": 4.90912264
       }
     },
     {
       "name": "Bad Nieuweschans",
       "loc": {
         "nLat": 53.18411879,
         "nLong": 7.19846878
       }
     },
     {
       "name": "Heerlen",
       "loc": {
         "nLat": 50.89094365,
         "nLong": 5.97457277
       }
     },
     {
       "name": "Veenendaal-De Klomp",
       "loc": {
         "nLat": 52.04581959,
         "nLong": 5.57393284
       }
     },
     {
       "name": "Boxtel",
       "loc": {
         "nLat": 51.58423423,
         "nLong": 5.31930075
       }
     },
     {
       "name": "Martenshoek",
       "loc": {
         "nLat": 53.160758,
         "nLong": 6.74191208
       }
     },
     {
       "name": "Emmen",
       "loc": {
         "nLat": 52.79037833,
         "nLong": 6.89970681
       }
     },
     {
       "name": "Waddinxveen Noord",
       "loc": {
         "nLat": 52.05537256,
         "nLong": 4.64839668
       }
     },
     {
       "name": "Baarn",
       "loc": {
         "nLat": 52.20808267,
         "nLong": 5.28169272
       }
     },
     {
       "name": "Tiel",
       "loc": {
         "nLat": 51.88978349,
         "nLong": 5.42311077
       }
     },
     {
       "name": "Elst",
       "loc": {
         "nLat": 51.91715193,
         "nLong": 5.85506116
       }
     },
     {
       "name": "Geleen - Lutterade",
       "loc": {
         "nLat": 50.97572926,
         "nLong": 5.82483465
       }
     },
     {
       "name": "Rilland - Bath",
       "loc": {
         "nLat": 51.422561,
         "nLong": 4.16002295
       }
     },
     {
       "name": "'s Hertogenbosch",
       "loc": {
         "nLat": 51.69063106,
         "nLong": 5.29375037
       }
     },
     {
       "name": "Klimmen - Ransdaal",
       "loc": {
         "nLat": 50.86645505,
         "nLong": 5.89058265
       }
     },
     {
       "name": "Alphen a\/d Rijn",
       "loc": {
         "nLat": 52.12413891,
         "nLong": 4.65780749
       }
     },
     {
       "name": "Grou - Jirnsum",
       "loc": {
         "nLat": 53.08900718,
         "nLong": 5.82271714
       }
     },
     {
       "name": "Ede - Wageningen",
       "loc": {
         "nLat": 52.02768299,
         "nLong": 5.67276981
       }
     },
     {
       "name": "Halfweg - Zwanenburg",
       "loc": {
         "nLat": 52.38625784,
         "nLong": 4.74522296
       }
     },
     {
       "name": "Naarden - Bussum",
       "loc": {
         "nLat": 52.2805349,
         "nLong": 5.15716444
       }
     },
     {
       "name": "Amsterdam ArenA",
       "loc": {
         "nLat": 52.31642102,
         "nLong": 4.94247519
       }
     },
     {
       "name": "Hemmen - Dodewaard",
       "loc": {
         "nLat": 51.92231407,
         "nLong": 5.6732934
       }
     },
     {
       "name": "Bovenkarspel - Grootebroek",
       "loc": {
         "nLat": 52.69510436,
         "nLong": 5.23816185
       }
     },
     {
       "name": "Lichtenvoorde - Groenlo",
       "loc": {
         "nLat": 52.01197654,
         "nLong": 6.5962577
       }
     },
     {
       "name": "'s Hertogenbosch Oost",
       "loc": {
         "nLat": 51.70050173,
         "nLong": 5.31720428
       }
     },
     {
       "name": "Maastricht Randwyck",
       "loc": {
         "nLat": 50.83798556,
         "nLong": 5.71749792
       }
     },
     {
       "name": "Krommenie - Assendelft",
       "loc": {
         "nLat": 52.49490702,
         "nLong": 4.75554756
       }
     },
     {
       "name": "Beek - Elsloo",
       "loc": {
         "nLat": 50.94749893,
         "nLong": 5.78667609
       }
     },
     {
       "name": "Heemstede - Aerdenhout",
       "loc": {
         "nLat": 52.35932707,
         "nLong": 4.60669078
       }
     },
     {
       "name": "Hamont",
       "loc": {
         "nLat": 51.24619872,
         "nLong": 5.54244573
       }
     },
     {
       "name": "Gilze - Rijen",
       "loc": {
         "nLat": 51.58383359,
         "nLong": 4.92534034
       }
     },
     {
       "name": "Kapelle - Biezelinge",
       "loc": {
         "nLat": 51.48096989,
         "nLong": 3.95527076
       }
     },
     {
       "name": "Voorst - Empe",
       "loc": {
         "nLat": 52.15744882,
         "nLong": 6.14398945
       }
     },
     {
       "name": "Kruiningen - Yerseke",
       "loc": {
         "nLat": 51.46520135,
         "nLong": 4.03727323
       }
     },
     {
       "name": "Hoogezand - Sappemeer",
       "loc": {
         "nLat": 53.15970904,
         "nLong": 6.77194289
       }
     },
     {
       "name": "Horst - Sevenum",
       "loc": {
         "nLat": 51.42641869,
         "nLong": 6.0423699
       }
     },
     {
       "name": "Zetten - Andelst",
       "loc": {
         "nLat": 51.91966713,
         "nLong": 5.72288544
       }
     },
     {
       "name": "Hardinxveld - Giessendam",
       "loc": {
         "nLat": 51.83043952,
         "nLong": 4.8352828
       }
     },
     {
       "name": "Boven - Hardinxveld",
       "loc": {
         "nLat": 51.83247398,
         "nLong": 4.87954357
       }
     },
     {
       "name": "Etten - Leur",
       "loc": {
         "nLat": 51.57524566,
         "nLong": 4.63661402
       }
     },
     {
       "name": "Breda - Prinsenbeek",
       "loc": {
         "nLat": 51.60601329,
         "nLong": 4.72122041
       }
     },
     {
       "name": "Houthem - St.Gerlach",
       "loc": {
         "nLat": 50.87336226,
         "nLong": 5.79715529
       }
     },
     {
       "name": "Deventer",
       "loc": {
         "nLat": 52.25707058,
         "nLong": 6.16129249
       }
     },
     {
       "name": "ChÃ¨vremont",
       "loc": {
         "nLat": 50.87612381,
         "nLong": 6.05954012
       }
     },
     {
       "name": "Koudum - Molkwerum",
       "loc": {
         "nLat": 52.90242714,
         "nLong": 5.41081407
       }
     },
     {
       "name": "Driebergen - Zeist",
       "loc": {
         "nLat": 52.06527302,
         "nLong": 5.25948776
       }
     },
     {
       "name": "Veenendaal - De Klomp",
       "loc": {
         "nLat": 52.04588424,
         "nLong": 5.57360039
       }
     }
   ],
   "lines": [
     {
       "trace": "Apeldoorn - Zutphen",
       "aPoints": [
         {
           "nLat": 52.20880028,
           "nLong": 5.98542543
         },
         {
           "nLat": 52.20872068,
           "nLong": 5.98688237
         },
         {
           "nLat": 52.20861272,
           "nLong": 5.98808502
         },
         {
           "nLat": 52.20838581,
           "nLong": 5.98977953
         },
         {
           "nLat": 52.20798316,
           "nLong": 5.99185963
         },
         {
           "nLat": 52.20723174,
           "nLong": 5.99457528
         },
         {
           "nLat": 52.20571136,
           "nLong": 5.9990113
         },
         {
           "nLat": 52.20395065,
           "nLong": 6.00412676
         },
         {
           "nLat": 52.20218791,
           "nLong": 6.00923976
         },
         {
           "nLat": 52.20051016,
           "nLong": 6.01441981
         },
         {
           "nLat": 52.19884061,
           "nLong": 6.01960771
         },
         {
           "nLat": 52.19717313,
           "nLong": 6.02479194
         },
         {
           "nLat": 52.19550555,
           "nLong": 6.0299759
         },
         {
           "nLat": 52.19384152,
           "nLong": 6.03516368
         },
         {
           "nLat": 52.19216816,
           "nLong": 6.04036562
         },
         {
           "nLat": 52.19049745,
           "nLong": 6.0455541
         },
         {
           "nLat": 52.18882839,
           "nLong": 6.05074207
         },
         {
           "nLat": 52.18715793,
           "nLong": 6.05592889
         },
         {
           "nLat": 52.18548824,
           "nLong": 6.06111795
         },
         {
           "nLat": 52.18382142,
           "nLong": 6.06630725
         },
         {
           "nLat": 52.18215119,
           "nLong": 6.0714907
         },
         {
           "nLat": 52.18046803,
           "nLong": 6.07663458
         },
         {
           "nLat": 52.17880684,
           "nLong": 6.08180583
         },
         {
           "nLat": 52.17713795,
           "nLong": 6.08698756
         },
         {
           "nLat": 52.17547521,
           "nLong": 6.09215616
         },
         {
           "nLat": 52.17381732,
           "nLong": 6.0973554
         },
         {
           "nLat": 52.17215932,
           "nLong": 6.10249638
         },
         {
           "nLat": 52.1704937,
           "nLong": 6.10767013
         },
         {
           "nLat": 52.16882722,
           "nLong": 6.11283327
         },
         {
           "nLat": 52.16715661,
           "nLong": 6.1180154
         },
         {
           "nLat": 52.16540505,
           "nLong": 6.12310785
         },
         {
           "nLat": 52.1635311,
           "nLong": 6.12810417
         },
         {
           "nLat": 52.16165149,
           "nLong": 6.13307393
         },
         {
           "nLat": 52.16023724,
           "nLong": 6.13681428
         },
         {
           "nLat": 52.15885154,
           "nLong": 6.14058247
         },
         {
           "nLat": 52.15789171,
           "nLong": 6.14306911
         },
         {
           "nLat": 52.15672168,
           "nLong": 6.14530082
         },
         {
           "nLat": 52.15428748,
           "nLong": 6.14960303
         },
         {
           "nLat": 52.15184304,
           "nLong": 6.15389276
         },
         {
           "nLat": 52.14940597,
           "nLong": 6.15818848
         },
         {
           "nLat": 52.14695998,
           "nLong": 6.16249586
         },
         {
           "nLat": 52.14451416,
           "nLong": 6.16680014
         },
         {
           "nLat": 52.14245963,
           "nLong": 6.17055968
         },
         {
           "nLat": 52.14187378,
           "nLong": 6.17219439
         },
         {
           "nLat": 52.14147914,
           "nLong": 6.1739039
         },
         {
           "nLat": 52.14125774,
           "nLong": 6.17577131
         },
         {
           "nLat": 52.14122065,
           "nLong": 6.17722665
         },
         {
           "nLat": 52.14135811,
           "nLong": 6.17896758
         }
       ]
     },
     {
       "trace": "Leusden - Amersfoort",
       "aPoints": [
         {
           "nLat": 52.10296497,
           "nLong": 5.42980091
         },
         {
           "nLat": 52.10610035,
           "nLong": 5.4269583
         },
         {
           "nLat": 52.10924293,
           "nLong": 5.42411128
         },
         {
           "nLat": 52.11238037,
           "nLong": 5.42125983
         },
         {
           "nLat": 52.11551381,
           "nLong": 5.41841481
         },
         {
           "nLat": 52.11866729,
           "nLong": 5.41559171
         },
         {
           "nLat": 52.12180628,
           "nLong": 5.41274382
         },
         {
           "nLat": 52.12493731,
           "nLong": 5.40987325
         },
         {
           "nLat": 52.12807564,
           "nLong": 5.40702362
         },
         {
           "nLat": 52.13121481,
           "nLong": 5.40417654
         },
         {
           "nLat": 52.13435677,
           "nLong": 5.40133693
         },
         {
           "nLat": 52.137497,
           "nLong": 5.39849235
         },
         {
           "nLat": 52.14063189,
           "nLong": 5.39563094
         },
         {
           "nLat": 52.14370838,
           "nLong": 5.39261586
         },
         {
           "nLat": 52.14625783,
           "nLong": 5.38850102
         },
         {
           "nLat": 52.14875784,
           "nLong": 5.38430129
         },
         {
           "nLat": 52.15062834,
           "nLong": 5.38114451
         }
       ]
     },
     {
       "trace": "Diemen Aansl.",
       "aPoints": [
         {
           "nLat": 52.33854416,
           "nLong": 4.98469513
         },
         {
           "nLat": 52.33666894,
           "nLong": 4.98781357
         },
         {
           "nLat": 52.33546195,
           "nLong": 4.99006887
         },
         {
           "nLat": 52.33441462,
           "nLong": 4.99242282
         },
         {
           "nLat": 52.33353477,
           "nLong": 4.99478143
         },
         {
           "nLat": 52.33239227,
           "nLong": 4.99726316
         },
         {
           "nLat": 52.33107588,
           "nLong": 5.00022809
         },
         {
           "nLat": 52.3294778,
           "nLong": 5.0045348
         },
         {
           "nLat": 52.32947771,
           "nLong": 5.00453505
         }
       ]
     },
     {
       "trace": "Budel Grens - Weert",
       "aPoints": [
         {
           "nLat": 51.24725198,
           "nLong": 5.55525141
         },
         {
           "nLat": 51.24738061,
           "nLong": 5.55832502
         },
         {
           "nLat": 51.24753754,
           "nLong": 5.56409197
         },
         {
           "nLat": 51.24767871,
           "nLong": 5.5698225
         },
         {
           "nLat": 51.2478162,
           "nLong": 5.5755434
         },
         {
           "nLat": 51.24793136,
           "nLong": 5.58125514
         },
         {
           "nLat": 51.24807713,
           "nLong": 5.5869729
         },
         {
           "nLat": 51.24822254,
           "nLong": 5.59271016
         },
         {
           "nLat": 51.24836974,
           "nLong": 5.59847334
         },
         {
           "nLat": 51.24851422,
           "nLong": 5.60420217
         },
         {
           "nLat": 51.24865766,
           "nLong": 5.60992749
         },
         {
           "nLat": 51.24880218,
           "nLong": 5.61564861
         },
         {
           "nLat": 51.24894459,
           "nLong": 5.62137841
         },
         {
           "nLat": 51.24908719,
           "nLong": 5.62710171
         },
         {
           "nLat": 51.24923102,
           "nLong": 5.6328327
         },
         {
           "nLat": 51.24937292,
           "nLong": 5.63855622
         },
         {
           "nLat": 51.24951888,
           "nLong": 5.64427399
         },
         {
           "nLat": 51.24966133,
           "nLong": 5.64999973
         },
         {
           "nLat": 51.24980691,
           "nLong": 5.65577046
         },
         {
           "nLat": 51.24994566,
           "nLong": 5.66152793
         },
         {
           "nLat": 51.25008904,
           "nLong": 5.66727116
         },
         {
           "nLat": 51.25022591,
           "nLong": 5.67298051
         },
         {
           "nLat": 51.25019717,
           "nLong": 5.67726459
         }
       ]
     },
     {
       "trace": "Amersfoort Aansl. - Hattemerbroek",
       "aPoints": [
         {
           "nLat": 52.17330471,
           "nLong": 5.4015206
         },
         {
           "nLat": 52.17959412,
           "nLong": 5.411994
         },
         {
           "nLat": 52.18647034,
           "nLong": 5.42355558
         },
         {
           "nLat": 52.1933362,
           "nLong": 5.43511126
         },
         {
           "nLat": 52.20021659,
           "nLong": 5.44669719
         },
         {
           "nLat": 52.20645267,
           "nLong": 5.45916571
         },
         {
           "nLat": 52.21115538,
           "nLong": 5.4733225
         },
         {
           "nLat": 52.21687234,
           "nLong": 5.48628811
         },
         {
           "nLat": 52.22435388,
           "nLong": 5.49680356
         },
         {
           "nLat": 52.23156536,
           "nLong": 5.50778627
         },
         {
           "nLat": 52.23671382,
           "nLong": 5.52152889
         },
         {
           "nLat": 52.24175976,
           "nLong": 5.53539762
         },
         {
           "nLat": 52.2469831,
           "nLong": 5.54907129
         },
         {
           "nLat": 52.25413645,
           "nLong": 5.56014077
         },
         {
           "nLat": 52.26168136,
           "nLong": 5.57055849
         },
         {
           "nLat": 52.26921096,
           "nLong": 5.58103061
         },
         {
           "nLat": 52.27675504,
           "nLong": 5.5914396
         },
         {
           "nLat": 52.28497851,
           "nLong": 5.60039696
         },
         {
           "nLat": 52.29367952,
           "nLong": 5.60807275
         },
         {
           "nLat": 52.30250015,
           "nLong": 5.61534079
         },
         {
           "nLat": 52.31225227,
           "nLong": 5.61615916
         },
         {
           "nLat": 52.32199471,
           "nLong": 5.61334515
         },
         {
           "nLat": 52.33131243,
           "nLong": 5.61067763
         },
         {
           "nLat": 52.33610688,
           "nLong": 5.61375262
         },
         {
           "nLat": 52.33854032,
           "nLong": 5.62554942
         },
         {
           "nLat": 52.34114267,
           "nLong": 5.64115966
         },
         {
           "nLat": 52.34233028,
           "nLong": 5.65716571
         },
         {
           "nLat": 52.34269584,
           "nLong": 5.67330717
         },
         {
           "nLat": 52.34306007,
           "nLong": 5.68943564
         },
         {
           "nLat": 52.34421931,
           "nLong": 5.70542297
         },
         {
           "nLat": 52.3482236,
           "nLong": 5.72016144
         },
         {
           "nLat": 52.35266904,
           "nLong": 5.73457162
         },
         {
           "nLat": 52.35738186,
           "nLong": 5.74876886
         },
         {
           "nLat": 52.36284569,
           "nLong": 5.76222954
         },
         {
           "nLat": 52.36859915,
           "nLong": 5.77537819
         },
         {
           "nLat": 52.37210766,
           "nLong": 5.79046046
         },
         {
           "nLat": 52.37527385,
           "nLong": 5.80575569
         },
         {
           "nLat": 52.37844169,
           "nLong": 5.82106491
         },
         {
           "nLat": 52.38245636,
           "nLong": 5.83580673
         },
         {
           "nLat": 52.38820018,
           "nLong": 5.84893444
         },
         {
           "nLat": 52.3942662,
           "nLong": 5.86170505
         },
         {
           "nLat": 52.40033816,
           "nLong": 5.8744738
         },
         {
           "nLat": 52.40640862,
           "nLong": 5.88724769
         },
         {
           "nLat": 52.41248286,
           "nLong": 5.89999283
         },
         {
           "nLat": 52.4186204,
           "nLong": 5.91267573
         },
         {
           "nLat": 52.42476254,
           "nLong": 5.92533811
         },
         {
           "nLat": 52.43000113,
           "nLong": 5.93908624
         },
         {
           "nLat": 52.43513772,
           "nLong": 5.9528876
         },
         {
           "nLat": 52.44027494,
           "nLong": 5.96671852
         },
         {
           "nLat": 52.44538014,
           "nLong": 5.98058408
         },
         {
           "nLat": 52.45044808,
           "nLong": 5.99449167
         },
         {
           "nLat": 52.45695074,
           "nLong": 6.00641739
         },
         {
           "nLat": 52.46557608,
           "nLong": 6.01437116
         },
         {
           "nLat": 52.4733256,
           "nLong": 6.02426379
         },
         {
           "nLat": 52.48016182,
           "nLong": 6.03595517
         },
         {
           "nLat": 52.48201999,
           "nLong": 6.03914174
         }
       ]
     },
     {
       "trace": "Roodeschool Eemshaven",
       "aPoints": [
         {
           "nLat": 53.45038669,
           "nLong": 6.80649147
         },
         {
           "nLat": 53.45045926,
           "nLong": 6.80796657
         },
         {
           "nLat": 53.45277658,
           "nLong": 6.80996019
         },
         {
           "nLat": 53.455384,
           "nLong": 6.81110386
         }
       ]
     },
     {
       "trace": "Groningen - Sauwerd",
       "aPoints": [
         {
           "nLat": 53.2103836,
           "nLong": 6.54802003
         },
         {
           "nLat": 53.21065626,
           "nLong": 6.54658498
         },
         {
           "nLat": 53.21109879,
           "nLong": 6.54526908
         },
         {
           "nLat": 53.2116826,
           "nLong": 6.54414544
         },
         {
           "nLat": 53.21238437,
           "nLong": 6.5432372
         },
         {
           "nLat": 53.21399365,
           "nLong": 6.54188894
         },
         {
           "nLat": 53.216229,
           "nLong": 6.54017817
         },
         {
           "nLat": 53.21732247,
           "nLong": 6.53983383
         },
         {
           "nLat": 53.21906828,
           "nLong": 6.54024445
         },
         {
           "nLat": 53.22022367,
           "nLong": 6.54126715
         },
         {
           "nLat": 53.22190601,
           "nLong": 6.54387473
         },
         {
           "nLat": 53.22414051,
           "nLong": 6.54745535
         },
         {
           "nLat": 53.22615266,
           "nLong": 6.55068846
         },
         {
           "nLat": 53.22832836,
           "nLong": 6.55409937
         },
         {
           "nLat": 53.22966852,
           "nLong": 6.55607118
         },
         {
           "nLat": 53.23102074,
           "nLong": 6.55743141
         },
         {
           "nLat": 53.23205356,
           "nLong": 6.55813626
         },
         {
           "nLat": 53.2331751,
           "nLong": 6.55865049
         },
         {
           "nLat": 53.23603167,
           "nLong": 6.55942593
         },
         {
           "nLat": 53.23825937,
           "nLong": 6.55886397
         },
         {
           "nLat": 53.24173925,
           "nLong": 6.55731151
         },
         {
           "nLat": 53.24515622,
           "nLong": 6.55550978
         },
         {
           "nLat": 53.24857917,
           "nLong": 6.55370931
         },
         {
           "nLat": 53.25206104,
           "nLong": 6.55220932
         },
         {
           "nLat": 53.25554292,
           "nLong": 6.55061316
         },
         {
           "nLat": 53.25899307,
           "nLong": 6.54891158
         },
         {
           "nLat": 53.26244359,
           "nLong": 6.54720217
         },
         {
           "nLat": 53.26589973,
           "nLong": 6.54548374
         },
         {
           "nLat": 53.26933619,
           "nLong": 6.54378873
         },
         {
           "nLat": 53.27277655,
           "nLong": 6.54207927
         },
         {
           "nLat": 53.27622768,
           "nLong": 6.54039966
         },
         {
           "nLat": 53.27890053,
           "nLong": 6.53974463
         },
         {
           "nLat": 53.28158062,
           "nLong": 6.5398342
         },
         {
           "nLat": 53.28516564,
           "nLong": 6.54003446
         },
         {
           "nLat": 53.28696833,
           "nLong": 6.54013946
         }
       ]
     },
     {
       "trace": "Amsterdam Sloterdijk",
       "aPoints": [
         {
           "nLat": 52.39537711,
           "nLong": 4.85853791
         },
         {
           "nLat": 52.39545161,
           "nLong": 4.85761428
         },
         {
           "nLat": 52.39544844,
           "nLong": 4.85413673
         },
         {
           "nLat": 52.39541377,
           "nLong": 4.84826034
         },
         {
           "nLat": 52.39538878,
           "nLong": 4.8457559
         },
         {
           "nLat": 52.39531944,
           "nLong": 4.84481937
         },
         {
           "nLat": 52.39518079,
           "nLong": 4.84388939
         },
         {
           "nLat": 52.39498813,
           "nLong": 4.84301486
         },
         {
           "nLat": 52.39462721,
           "nLong": 4.84191299
         },
         {
           "nLat": 52.39420828,
           "nLong": 4.84098341
         },
         {
           "nLat": 52.39374289,
           "nLong": 4.8402077
         },
         {
           "nLat": 52.39316479,
           "nLong": 4.83947939
         },
         {
           "nLat": 52.39243155,
           "nLong": 4.83882121
         },
         {
           "nLat": 52.39136119,
           "nLong": 4.83827008
         },
         {
           "nLat": 52.39047682,
           "nLong": 4.83808557
         },
         {
           "nLat": 52.38868226,
           "nLong": 4.83809422
         },
         {
           "nLat": 52.38740417,
           "nLong": 4.83832267
         },
         {
           "nLat": 52.38497909,
           "nLong": 4.83918025
         },
         {
           "nLat": 52.38387694,
           "nLong": 4.83934438
         },
         {
           "nLat": 52.38245159,
           "nLong": 4.83909916
         },
         {
           "nLat": 52.37896524,
           "nLong": 4.83766588
         },
         {
           "nLat": 52.37635844,
           "nLong": 4.83650138
         },
         {
           "nLat": 52.37461438,
           "nLong": 4.83582053
         }
       ]
     },
     {
       "trace": "Blauwkapel",
       "aPoints": [
         {
           "nLat": 52.11389259,
           "nLong": 5.14380975
         },
         {
           "nLat": 52.11301734,
           "nLong": 5.14252074
         },
         {
           "nLat": 52.11247239,
           "nLong": 5.14207979
         }
       ]
     },
     {
       "trace": "Zwolle",
       "aPoints": [
         {
           "nLat": 52.49926854,
           "nLong": 6.07587256
         },
         {
           "nLat": 52.50098316,
           "nLong": 6.07676707
         },
         {
           "nLat": 52.50269185,
           "nLong": 6.07764852
         },
         {
           "nLat": 52.50440575,
           "nLong": 6.07853604
         },
         {
           "nLat": 52.50546818,
           "nLong": 6.07934086
         },
         {
           "nLat": 52.50615608,
           "nLong": 6.08035425
         }
       ]
     },
     {
       "trace": "Maastricht",
       "aPoints": [
         {
           "nLat": 50.85479189,
           "nLong": 5.70318935
         },
         {
           "nLat": 50.85644641,
           "nLong": 5.70211348
         },
         {
           "nLat": 50.85744129,
           "nLong": 5.70105149
         },
         {
           "nLat": 50.85813011,
           "nLong": 5.699514
         }
       ]
     },
     {
       "trace": "Maastricht",
       "aPoints": [
         {
           "nLat": 50.84347398,
           "nLong": 5.71165727
         },
         {
           "nLat": 50.84530559,
           "nLong": 5.70856201
         },
         {
           "nLat": 50.84652516,
           "nLong": 5.70716384
         },
         {
           "nLat": 50.84764686,
           "nLong": 5.70659684
         }
       ]
     },
     {
       "trace": "Meppel - Leeuwarden",
       "aPoints": [
         {
           "nLat": 52.69905759,
           "nLong": 6.20016026
         },
         {
           "nLat": 52.70951063,
           "nLong": 6.20463121
         },
         {
           "nLat": 52.71645421,
           "nLong": 6.20205283
         },
         {
           "nLat": 52.72741073,
           "nLong": 6.19523445
         },
         {
           "nLat": 52.73835882,
           "nLong": 6.18842195
         },
         {
           "nLat": 52.74929456,
           "nLong": 6.18160893
         },
         {
           "nLat": 52.76022122,
           "nLong": 6.17478703
         },
         {
           "nLat": 52.77115023,
           "nLong": 6.16797572
         },
         {
           "nLat": 52.78082215,
           "nLong": 6.16181598
         },
         {
           "nLat": 52.78474124,
           "nLong": 6.15506331
         },
         {
           "nLat": 52.7874332,
           "nLong": 6.13941703
         },
         {
           "nLat": 52.79046483,
           "nLong": 6.12078647
         },
         {
           "nLat": 52.79395879,
           "nLong": 6.10576008
         },
         {
           "nLat": 52.80153407,
           "nLong": 6.09530371
         },
         {
           "nLat": 52.81064174,
           "nLong": 6.08320845
         },
         {
           "nLat": 52.82002524,
           "nLong": 6.07182068
         },
         {
           "nLat": 52.83005662,
           "nLong": 6.06196026
         },
         {
           "nLat": 52.84011461,
           "nLong": 6.05206931
         },
         {
           "nLat": 52.84985024,
           "nLong": 6.04132311
         },
         {
           "nLat": 52.85930529,
           "nLong": 6.02991563
         },
         {
           "nLat": 52.86876482,
           "nLong": 6.01850392
         },
         {
           "nLat": 52.87822618,
           "nLong": 6.00704981
         },
         {
           "nLat": 52.88766771,
           "nLong": 5.9956749
         },
         {
           "nLat": 52.89716634,
           "nLong": 5.98441163
         },
         {
           "nLat": 52.90707359,
           "nLong": 5.97428759
         },
         {
           "nLat": 52.91697572,
           "nLong": 5.96417517
         },
         {
           "nLat": 52.92681388,
           "nLong": 5.95372779
         },
         {
           "nLat": 52.93653016,
           "nLong": 5.94277201
         },
         {
           "nLat": 52.94623717,
           "nLong": 5.93181218
         },
         {
           "nLat": 52.95592779,
           "nLong": 5.92086298
         },
         {
           "nLat": 52.96561174,
           "nLong": 5.90992145
         },
         {
           "nLat": 52.97520918,
           "nLong": 5.89878772
         },
         {
           "nLat": 52.98441959,
           "nLong": 5.88665212
         },
         {
           "nLat": 52.99361933,
           "nLong": 5.87450168
         },
         {
           "nLat": 53.00367817,
           "nLong": 5.86474211
         },
         {
           "nLat": 53.01507698,
           "nLong": 5.85912958
         },
         {
           "nLat": 53.02638007,
           "nLong": 5.85356647
         },
         {
           "nLat": 53.03768832,
           "nLong": 5.84800707
         },
         {
           "nLat": 53.04897185,
           "nLong": 5.84248968
         },
         {
           "nLat": 53.06024399,
           "nLong": 5.83689477
         },
         {
           "nLat": 53.07147683,
           "nLong": 5.8313803
         },
         {
           "nLat": 53.08270085,
           "nLong": 5.82601748
         },
         {
           "nLat": 53.09406245,
           "nLong": 5.82021913
         },
         {
           "nLat": 53.10535031,
           "nLong": 5.81464732
         },
         {
           "nLat": 53.11662078,
           "nLong": 5.8090778
         },
         {
           "nLat": 53.12792254,
           "nLong": 5.80349277
         },
         {
           "nLat": 53.13919718,
           "nLong": 5.79792645
         },
         {
           "nLat": 53.15049792,
           "nLong": 5.7923272
         },
         {
           "nLat": 53.16178987,
           "nLong": 5.78674444
         },
         {
           "nLat": 53.17305028,
           "nLong": 5.78116361
         },
         {
           "nLat": 53.1840664,
           "nLong": 5.77469339
         },
         {
           "nLat": 53.19179571,
           "nLong": 5.77274216
         },
         {
           "nLat": 53.19415327,
           "nLong": 5.77705262
         }
       ]
     },
     {
       "trace": "Lage Zwaluwe",
       "aPoints": [
         {
           "nLat": 51.67759331,
           "nLong": 4.67180653
         },
         {
           "nLat": 51.68093393,
           "nLong": 4.66961342
         },
         {
           "nLat": 51.68430706,
           "nLong": 4.66750216
         },
         {
           "nLat": 51.68761329,
           "nLong": 4.66533526
         },
         {
           "nLat": 51.69096077,
           "nLong": 4.66316014
         },
         {
           "nLat": 51.69428166,
           "nLong": 4.66090557
         },
         {
           "nLat": 51.69768352,
           "nLong": 4.65867107
         },
         {
           "nLat": 51.70100533,
           "nLong": 4.65643462
         },
         {
           "nLat": 51.70433909,
           "nLong": 4.65424829
         },
         {
           "nLat": 51.70765476,
           "nLong": 4.65205035
         },
         {
           "nLat": 51.71014949,
           "nLong": 4.65038781
         },
         {
           "nLat": 51.71098701,
           "nLong": 4.64985161
         }
       ]
     },
     {
       "trace": "Groningen Losplaats - Waterhuizen Aansl.",
       "aPoints": [
         {
           "nLat": 53.19612224,
           "nLong": 6.60691232
         },
         {
           "nLat": 53.1949217,
           "nLong": 6.6109288
         },
         {
           "nLat": 53.19331527,
           "nLong": 6.61630087
         },
         {
           "nLat": 53.19170928,
           "nLong": 6.62166865
         },
         {
           "nLat": 53.19080173,
           "nLong": 6.62469674
         },
         {
           "nLat": 53.18969306,
           "nLong": 6.62837842
         },
         {
           "nLat": 53.18849133,
           "nLong": 6.6323922
         },
         {
           "nLat": 53.18728129,
           "nLong": 6.63641862
         },
         {
           "nLat": 53.18687843,
           "nLong": 6.6377608
         }
       ]
     },
     {
       "trace": "Rotterdam Lombardijen - Rotterdam Centraal",
       "aPoints": [
         {
           "nLat": 51.88867484,
           "nLong": 4.52375386
         },
         {
           "nLat": 51.89185419,
           "nLong": 4.52093244
         },
         {
           "nLat": 51.89502545,
           "nLong": 4.51826812
         },
         {
           "nLat": 51.89822107,
           "nLong": 4.51562401
         },
         {
           "nLat": 51.90140472,
           "nLong": 4.51297661
         },
         {
           "nLat": 51.90456877,
           "nLong": 4.51017019
         },
         {
           "nLat": 51.90761421,
           "nLong": 4.50701457
         },
         {
           "nLat": 51.91042517,
           "nLong": 4.50338594
         },
         {
           "nLat": 51.91324793,
           "nLong": 4.49979471
         },
         {
           "nLat": 51.91591186,
           "nLong": 4.49580669
         },
         {
           "nLat": 51.91836464,
           "nLong": 4.4915803
         },
         {
           "nLat": 51.92107594,
           "nLong": 4.48769258
         },
         {
           "nLat": 51.92384224,
           "nLong": 4.48380134
         },
         {
           "nLat": 51.92530624,
           "nLong": 4.48142848
         },
         {
           "nLat": 51.92599106,
           "nLong": 4.47918446
         },
         {
           "nLat": 51.92617605,
           "nLong": 4.47730652
         },
         {
           "nLat": 51.92614279,
           "nLong": 4.47627854
         }
       ]
     },
     {
       "trace": "Ede=Wageningen",
       "aPoints": [
         {
           "nLat": 52.02904467,
           "nLong": 5.66537177
         },
         {
           "nLat": 52.02828356,
           "nLong": 5.66955927
         },
         {
           "nLat": 52.02723726,
           "nLong": 5.67515228
         },
         {
           "nLat": 52.02620062,
           "nLong": 5.68072907
         },
         {
           "nLat": 52.02518487,
           "nLong": 5.68633476
         }
       ]
     },
     {
       "trace": "Gouda",
       "aPoints": [
         {
           "nLat": 52.01683137,
           "nLong": 4.71360399
         },
         {
           "nLat": 52.01725389,
           "nLong": 4.70808172
         },
         {
           "nLat": 52.01748932,
           "nLong": 4.70492178
         },
         {
           "nLat": 52.0177215,
           "nLong": 4.70057326
         },
         {
           "nLat": 52.01797112,
           "nLong": 4.69623219
         },
         {
           "nLat": 52.01827498,
           "nLong": 4.69132257
         },
         {
           "nLat": 52.01828673,
           "nLong": 4.68945401
         },
         {
           "nLat": 52.01827788,
           "nLong": 4.68896878
         }
       ]
     },
     {
       "trace": "Duivendrecht - Amsterdam Riekerpolder",
       "aPoints": [
         {
           "nLat": 52.3220564,
           "nLong": 4.92676082
         },
         {
           "nLat": 52.32258986,
           "nLong": 4.92316652
         },
         {
           "nLat": 52.32362022,
           "nLong": 4.91994404
         },
         {
           "nLat": 52.32511597,
           "nLong": 4.91628487
         },
         {
           "nLat": 52.32711545,
           "nLong": 4.91139725
         },
         {
           "nLat": 52.32910858,
           "nLong": 4.90652841
         },
         {
           "nLat": 52.33123413,
           "nLong": 4.90177818
         },
         {
           "nLat": 52.33347434,
           "nLong": 4.89718619
         },
         {
           "nLat": 52.33575574,
           "nLong": 4.89265879
         },
         {
           "nLat": 52.33798942,
           "nLong": 4.88806408
         },
         {
           "nLat": 52.33907416,
           "nLong": 4.88340762
         },
         {
           "nLat": 52.33914471,
           "nLong": 4.87969317
         },
         {
           "nLat": 52.33889203,
           "nLong": 4.87383401
         },
         {
           "nLat": 52.33866,
           "nLong": 4.86798357
         },
         {
           "nLat": 52.33842948,
           "nLong": 4.86208476
         },
         {
           "nLat": 52.33817449,
           "nLong": 4.85623477
         },
         {
           "nLat": 52.33786783,
           "nLong": 4.85041621
         },
         {
           "nLat": 52.33755896,
           "nLong": 4.84456988
         },
         {
           "nLat": 52.33757341,
           "nLong": 4.84165127
         },
         {
           "nLat": 52.33791574,
           "nLong": 4.8387703
         },
         {
           "nLat": 52.33791578,
           "nLong": 4.83877011
         }
       ]
     },
     {
       "trace": "Oss Racc. Elzenburg",
       "aPoints": [
         {
           "nLat": 51.76683686,
           "nLong": 5.55140128
         },
         {
           "nLat": 51.7676191,
           "nLong": 5.55205134
         },
         {
           "nLat": 51.77031712,
           "nLong": 5.55208109
         },
         {
           "nLat": 51.77390423,
           "nLong": 5.55213407
         },
         {
           "nLat": 51.77750659,
           "nLong": 5.55224061
         },
         {
           "nLat": 51.78109596,
           "nLong": 5.55274122
         },
         {
           "nLat": 51.7837794,
           "nLong": 5.55309836
         },
         {
           "nLat": 51.78735582,
           "nLong": 5.55365223
         },
         {
           "nLat": 51.7878032,
           "nLong": 5.55372114
         }
       ]
     },
     {
       "trace": "VisÃ© (B) - Eijsden Grens",
       "aPoints": [
         {
           "nLat": 50.729351,
           "nLong": 5.69412923
         },
         {
           "nLat": 50.73088742,
           "nLong": 5.69426813
         },
         {
           "nLat": 50.73338639,
           "nLong": 5.69364826
         },
         {
           "nLat": 50.73692872,
           "nLong": 5.69267748
         },
         {
           "nLat": 50.74050572,
           "nLong": 5.69243956
         },
         {
           "nLat": 50.74405524,
           "nLong": 5.69333679
         },
         {
           "nLat": 50.7466777,
           "nLong": 5.69431428
         },
         {
           "nLat": 50.75003013,
           "nLong": 5.69635399
         },
         {
           "nLat": 50.75184654,
           "nLong": 5.69839971
         },
         {
           "nLat": 50.7537363,
           "nLong": 5.70033054
         },
         {
           "nLat": 50.75628366,
           "nLong": 5.70171917
         },
         {
           "nLat": 50.75879565,
           "nLong": 5.7030582
         }
       ]
     },
     {
       "trace": "Hoorn",
       "aPoints": [
         {
           "nLat": 52.64384821,
           "nLong": 5.04052681
         },
         {
           "nLat": 52.64506575,
           "nLong": 5.04609907
         },
         {
           "nLat": 52.64553968,
           "nLong": 5.04862001
         },
         {
           "nLat": 52.64557684,
           "nLong": 5.04970717
         },
         {
           "nLat": 52.64544625,
           "nLong": 5.05256024
         },
         {
           "nLat": 52.64521168,
           "nLong": 5.05480056
         },
         {
           "nLat": 52.64477214,
           "nLong": 5.05768207
         },
         {
           "nLat": 52.64459365,
           "nLong": 5.05962706
         },
         {
           "nLat": 52.64498895,
           "nLong": 5.06201253
         },
         {
           "nLat": 52.64627018,
           "nLong": 5.06753801
         },
         {
           "nLat": 52.64753771,
           "nLong": 5.07307278
         },
         {
           "nLat": 52.64835429,
           "nLong": 5.07569231
         }
       ]
     },
     {
       "trace": "Roosendaal - Roosendaal Grens",
       "aPoints": [
         {
           "nLat": 51.4691546,
           "nLong": 4.44889279
         },
         {
           "nLat": 51.4721978,
           "nLong": 4.4478551
         }
       ]
     },
     {
       "trace": "Sittard",
       "aPoints": [
         {
           "nLat": 51.00718693,
           "nLong": 5.85989342
         },
         {
           "nLat": 51.00798777,
           "nLong": 5.85922727
         }
       ]
     },
     {
       "trace": "Delfzijl Stamlijn Havenschap",
       "aPoints": [
         {
           "nLat": 53.31292884,
           "nLong": 6.96392888
         },
         {
           "nLat": 53.31249264,
           "nLong": 6.96836613
         },
         {
           "nLat": 53.31232151,
           "nLong": 6.9710869
         }
       ]
     },
     {
       "trace": "Blerick",
       "aPoints": [
         {
           "nLat": 51.37033681,
           "nLong": 6.15908166
         },
         {
           "nLat": 51.37200694,
           "nLong": 6.15569996
         },
         {
           "nLat": 51.37461281,
           "nLong": 6.15174385
         },
         {
           "nLat": 51.37671697,
           "nLong": 6.1470981
         },
         {
           "nLat": 51.37869423,
           "nLong": 6.14228704
         },
         {
           "nLat": 51.37869424,
           "nLong": 6.14228702
         }
       ]
     },
     {
       "trace": "Den Haag Binckhorst",
       "aPoints": [
         {
           "nLat": 52.07601036,
           "nLong": 4.33547714
         },
         {
           "nLat": 52.07605473,
           "nLong": 4.3325612
         }
       ]
     },
     {
       "trace": "Den Helder - Heerhugowaard",
       "aPoints": [
         {
           "nLat": 52.95689194,
           "nLong": 4.76062583
         },
         {
           "nLat": 52.95155783,
           "nLong": 4.76202271
         },
         {
           "nLat": 52.94617317,
           "nLong": 4.76224952
         },
         {
           "nLat": 52.94137257,
           "nLong": 4.76058542
         },
         {
           "nLat": 52.93827707,
           "nLong": 4.76125962
         },
         {
           "nLat": 52.93316068,
           "nLong": 4.76387046
         },
         {
           "nLat": 52.92801784,
           "nLong": 4.76656196
         },
         {
           "nLat": 52.9228717,
           "nLong": 4.76921377
         },
         {
           "nLat": 52.91773088,
           "nLong": 4.77186804
         },
         {
           "nLat": 52.91257936,
           "nLong": 4.77452867
         },
         {
           "nLat": 52.90747071,
           "nLong": 4.77735188
         },
         {
           "nLat": 52.90359324,
           "nLong": 4.783384
         },
         {
           "nLat": 52.90141537,
           "nLong": 4.79155983
         },
         {
           "nLat": 52.89928141,
           "nLong": 4.7997961
         },
         {
           "nLat": 52.89669529,
           "nLong": 4.80760135
         },
         {
           "nLat": 52.89251871,
           "nLong": 4.81328599
         },
         {
           "nLat": 52.88737228,
           "nLong": 4.81579199
         },
         {
           "nLat": 52.88203208,
           "nLong": 4.81507265
         },
         {
           "nLat": 52.87671676,
           "nLong": 4.81368473
         },
         {
           "nLat": 52.87139096,
           "nLong": 4.81227794
         },
         {
           "nLat": 52.8660533,
           "nLong": 4.81086877
         },
         {
           "nLat": 52.86070636,
           "nLong": 4.80945668
         },
         {
           "nLat": 52.85538339,
           "nLong": 4.80805704
         },
         {
           "nLat": 52.85006077,
           "nLong": 4.80667071
         },
         {
           "nLat": 52.84474794,
           "nLong": 4.80528516
         },
         {
           "nLat": 52.83939751,
           "nLong": 4.80389184
         },
         {
           "nLat": 52.83401804,
           "nLong": 4.80248722
         },
         {
           "nLat": 52.8286112,
           "nLong": 4.80123136
         },
         {
           "nLat": 52.82319839,
           "nLong": 4.80162789
         },
         {
           "nLat": 52.81780728,
           "nLong": 4.80214619
         },
         {
           "nLat": 52.81240332,
           "nLong": 4.80265958
         },
         {
           "nLat": 52.80701932,
           "nLong": 4.80323644
         },
         {
           "nLat": 52.80164073,
           "nLong": 4.80374955
         },
         {
           "nLat": 52.79625382,
           "nLong": 4.80424605
         },
         {
           "nLat": 52.79087606,
           "nLong": 4.80470934
         },
         {
           "nLat": 52.78550398,
           "nLong": 4.80524066
         },
         {
           "nLat": 52.78013329,
           "nLong": 4.80575333
         },